[
	{
		"id":"1",
		"name":"Skypeak Technology",
		"lat":"21.121440",
		"lng":"79.053305",
		"address":"Shewalkar Garden, IT Park., S Ambazari Road",
		"address2":"",
		"city":"Nagpur",
		"state":"MH",
		"postal":"445002",
		"phone":"612-922-6662",
		"web":"http:\/\/www.Skypeak.com"
	},
	{
		"id":"2",
		"name":"Persistant Technology",
		"lat":"21.121431",
		"lng":"79.047274",
		"address":"2nd, 3rd Floor, Infotech Tower, S Ambazari Rd, M.I.D.C, Salt Lake, SMS India, Gopal Nagar, Subhash Nagar, Parsodi",
		"address2":"",
		"city":"Nagpur",
		"state":"MH",
		"postal":"445002",
		"phone":"612-922-6662",
		"web":"http:\/\/www.Skypeak.com"
	},
	{
		"id":"3",
		"name":"Seva Automobile",
		"lat":"21.152647",
		"lng":"79.020283",
		"address":"",
		"address2":"",
		"city":"Nagpur",
		"state":"MH",
		"postal":"445002",
		"phone":"612-922-6662",
		"web":"http:\/\/www.Skypeak.com"
	},
	{
		"id":"4",
		"name":"BMW Showroom",
		"lat":"21.145132",
		"lng":"79.003718",
		"address":"",
		"address2":"",
		"city":"Nagpur",
		"state":"MH",
		"postal":"445002",
		"phone":"612-922-6662",
		"web":"http:\/\/www.Skypeak.com"
	},
	{
		"id":"5",
		"name":"Krazy Castle",
		"lat":"21.129226",
		"lng":"79.046161",
		"address":"",
		"address2":"",
		"city":"Nagpur",
		"state":"MH",
		"postal":"445002",
		"phone":"612-922-6662",
		"web":"http:\/\/www.Skypeak.com"
	},
	{
		"id":"6",
		"name":"LineEdge Sloution",
		"lat":"21.118157",
		"lng":"79.044477",
		"address":"",
		"address2":"",
		"city":"Nagpur",
		"state":"MH",
		"postal":"445002",
		"phone":"612-922-6662",
		"web":"http:\/\/www.Skypeak.com"
	},
	{
		"id":"8",
		"name":"XL IT",
		"lat":"21.119798",
		"lng":"79.032462",
		"address":"",
		"address2":"",
		"city":"Nagpur",
		"state":"MH",
		"postal":"445002",
		"phone":"612-922-6662",
		"web":"http:\/\/www.Skypeak.com"
	},
	{
		"id":"9",
		"name":"Arc Vision Software Technologies",
		"lat":"21.116075",
		"lng":"79.010221",
		"address":"",
		"address2":"",
		"city":"Nagpur",
		"state":"MH",
		"postal":"445002",
		"phone":"612-922-6662",
		"web":"http:\/\/www.Skypeak.com"
	},
	{
		"id":"10",
		"name":"Ordnance Factory Ambajhari",
		"lat":"21.135890",
		"lng":"78.977273",
		"address":"",
		"address2":"",
		"city":"Nagpur",
		"state":"MH",
		"postal":"445002",
		"phone":"612-922-6662",
		"web":"http:\/\/www.Skypeak.com"
	},
	{
		"id":"11",
		"name":"Three Technology",
		"lat":"21.089270",
		"lng":"79.080409",
		"address":"",
		"address2":"",
		"city":"Nagpur",
		"state":"MH",
		"postal":"445002",
		"phone":"612-922-6662",
		"web":"http:\/\/www.Skypeak.com"
	},
	{
		"id":"12",
		"name":"Hospital",
		"lat":"21.091753",
		"lng":"79.076944",
		"address":"",
		"address2":"",
		"city":"Nagpur",
		"state":"MH",
		"postal":"445002",
		"phone":"612-922-6662",
		"web":"http:\/\/www.Skypeak.com"
	},
	{
		"id":"13",
		"name":"Reliance Fresh",
		"lat":"21.092043",
		"lng":"79.073103",
		"address":"",
		"address2":"",
		"city":"Nagpur",
		"state":"MH",
		"postal":"445002",
		"phone":"612-922-6662",
		"web":"http:\/\/www.Skypeak.com"
	},
	{
		"id":"14",
		"name":"Colleage, Yavatmal",
		"lat":"20.372037",
		"lng":"78.135489",
		"address":"",
		"address2":"",
		"city":"Nagpur",
		"state":"MH",
		"postal":"445002",
		"phone":"612-922-6662",
		"web":"http:\/\/www.Skypeak.com"
	},
	{
		"id":"15",
		"name":"Colleage,Ghatanji",
		"lat":"20.145746",
		"lng":"78.309342",
		"address":"",
		"address2":"",
		"city":"Nagpur",
		"state":"MH",
		"postal":"445002",
		"phone":"612-922-6662",
		"web":"http:\/\/www.Skypeak.com"
	},
	{
		"id":"16",
		"name":"Cafe",
		"lat":"20.021473",
		"lng":"78.547351",
		"address":"",
		"address2":"",
		"city":"Nagpur",
		"state":"MH",
		"postal":"445002",
		"phone":"612-922-6662",
		"web":"http:\/\/www.Skypeak.com"
	},
	{
		"id":"17",
		"name":"Pune",
		"lat":"18.522856",
		"lng":"73.862107",
		"address":"",
		"address2":"",
		"city":"Nagpur",
		"state":"MH",
		"postal":"445002",
		"phone":"612-922-6662",
		"web":"http:\/\/www.Skypeak.com"
	},
	{
		"id":"18",
		"name":"Hostpiatal Pune",
		"lat":"18.524809",
		"lng":"73.862107",
		"address":"73.859103",
		"address2":"",
		"city":"Nagpur",
		"state":"MH",
		"postal":"445002",
		"phone":"612-922-6662",
		"web":"http:\/\/www.Skypeak.com"
	},
	{
		"id":"19",
		"name":"Bank Pune",
		"lat":"18.525531",
		"lng":"73.850166",
		"address":"73.859103",
		"address2":"",
		"city":"Nagpur",
		"state":"MH",
		"postal":"445002",
		"phone":"612-922-6662",
		"web":"http:\/\/www.Skypeak.com"
	},
	{
		"id":"20",
		"name":"Bank Pune",
		"lat":"18.525857",
		"lng":"73.846357",
		"address":"73.859103",
		"address2":"",
		"city":"Nagpur",
		"state":"MH",
		"postal":"445002",
		"phone":"612-922-6662",
		"web":"http:\/\/www.Skypeak.com"
	},
	{
		"id":"21",
		"name":"cafe,pune",
		"lat":"18.524360",
		"lng":"73.843833",
		"address":"",
		"address2":"",
		"city":"Nagpur",
		"state":"MH",
		"postal":"445002",
		"phone":"612-922-6662",
		"web":"http:\/\/www.Skypeak.com"
	}
]